     3.04           OBSERVATION DATA    M: Mixed            RINEX VERSION / TYPE
RTKCONV demo5 b34g                      20230321 151448 UTC PGM / RUN BY / DATE 
format: u-blox UBX                                          COMMENT             
log: C:\src\GNSS\logsmy\TeseoV_L5L1_L2L1\C102-F9R.ubx       COMMENT             
                                                            MARKER NAME         
                                                            MARKER NUMBER       
                                                            MARKER TYPE         
                                                            OBSERVER / AGENCY   
                                                            REC # / TYPE / VERS 
                                                            ANT # / TYPE        
  4180744.7100   850234.6251  4726108.0907                  APPROX POSITION XYZ 
        0.0000        0.0000        0.0000                  ANTENNA: DELTA H/E/N
G    8 C1C L1C D1C S1C C2X L2X D2X S2X                      SYS / # / OBS TYPES 
R    8 C1C L1C D1C S1C C2C L2C D2C S2C                      SYS / # / OBS TYPES 
E    8 C1X L1X D1X S1X C7X L7X D7X S7X                      SYS / # / OBS TYPES 
S    4 C1C L1C D1C S1C                                      SYS / # / OBS TYPES 
C    8 C2I L2I D2I S2I C7I L7I D7I S7I                      SYS / # / OBS TYPES 
  2022    12    19    11    34   27.1980000     GPS         TIME OF FIRST OBS   
  2022    12    19    11    37   26.3980000     GPS         TIME OF LAST OBS    
G L1C                                                       SYS / PHASE SHIFT   
G L2X -0.25000                                              SYS / PHASE SHIFT   
R L1C                                                       SYS / PHASE SHIFT   
R L2C                                                       SYS / PHASE SHIFT   
E L1X  0.00000                                              SYS / PHASE SHIFT   
E L7X  0.00000                                              SYS / PHASE SHIFT   
S L1C                                                       SYS / PHASE SHIFT   
C L2I                                                       SYS / PHASE SHIFT   
C L7I                                                       SYS / PHASE SHIFT   
 10 R01  1 R06 -4 R07  5 R08  6 R09 -2 R10 -7 R11  0 R16 -1 GLONASS SLOT / FRQ #
    R17  4 R18 -3                                           GLONASS SLOT / FRQ #
 C1C    0.000 C1P    0.000 C2C    0.000 C2P    0.000        GLONASS COD/PHS/BIS 
                                                            END OF HEADER       
> 2022 12 19 11 34 27.1980000  0 38                     
G05  21622140.589   113625115.1171      -3082.423          45.000    21622128.404    88539000.7721      -2402.272          33.000  
G07  24316693.323   127785085.1411      -3332.671          27.000                                                                  
G13  19500322.614   102474885.9251        -27.852          44.000                                                                  
G14  20400296.328   107204280.0061       -768.236          48.000    20400292.660    83535787.5691       -598.599          45.000  
G15  20455212.938   107492868.2111       1681.346          37.000    20455208.724    83760659.1751       1310.022          39.000  
C10  37967116.759   197704739.8071       -253.178          40.000    37967103.802   152877793.6891       -195.631          45.000  
C11  26219315.152   136530854.3841        321.075          37.000    26219302.074   105574264.6211        247.931          40.000  
C19  22923543.498   119368905.9221       1442.455          40.000                                                                  
C20  21308429.615   110958583.7671      -1631.574          42.000                                                                  
C32  24893671.993   129627881.9161      -3797.971          36.000                                                                  
R10  19333058.304   103056079.6001       1629.431          41.000                                                                  
R09  18984019.184   101373602.8871      -1911.396          49.000    18984014.611    78846115.4861      -1486.688          45.000  
R16  22810395.780   121849038.9781      -4408.773          51.000    22810396.128    94771476.4581      -3429.258          42.000  
R01  23251295.989   124291501.3711       3850.427          36.000                                                                  
G17  23883475.559   125508510.2541       2474.208          32.000    23883454.396                        1928.202          25.000  
G18  24673426.659   129659731.3951      -2144.659          30.000    24673420.589                       -1670.531          27.000  
S23  37976964.473   199570294.0201       -387.509          45.000  
S27  38963431.080   204754211.0911       -396.589          38.000  
S36  37726318.475   198253140.1481       -384.198          44.000  
E03  25618921.134   134628338.9761       2036.936          31.000    25618928.901   103156809.7091       1560.873          39.000  
C34  26400147.675   137472496.0621       -791.926          28.000                                                                  
C37  21480745.596   111855878.6281      -1162.565          45.000                                                                  
R07  19090595.980   102193453.6021      -2299.244          48.000    19090593.448    79483786.7351      -1788.293          41.000  
R08  19404369.648   103909517.0081       1690.016          47.000    19404362.428    80818484.1601       1314.461          42.000  
R18  23537419.077   125644340.1141       2038.197          40.000                                                                  
R17  23033598.693   123257438.6881       -717.196          39.000                                                                  
E05  22801654.680   119823503.3681       -195.099          43.000    22801653.544    91812809.3861       -149.699          45.000  
E09  24900546.019   130853251.8251      -2620.290          47.000    24900544.286   100264173.4591      -2007.804          45.000  
E24  23357490.216   122744439.5321        469.977          47.000    23357486.648    94050919.3391        360.124          47.000  
E25  26106469.475   137190422.9841       2600.667          42.000    26106470.831   105119939.5791       1992.672          43.000  
E31  24663060.125   129605254.9861      -2223.510          44.000    24663060.729    99307925.3801      -1703.730          47.000  
G20  23534956.879   123677032.6951      -4081.865          35.000                                                                  
G23  24109036.528   126693841.0831       2578.877          37.000    24109013.259                        2010.370          22.000  
G24  23709593.256   124594752.0151       3043.011          38.000    23709597.620    97086838.0731       2371.701          31.000  
G30  21578395.362   113395232.0481      -2741.523          48.000    21578397.067    88359928.0551      -2136.455          43.000  
E13                                                                  27762160.793   111786716.4031       -397.403          27.000  
C07                                                                  38308048.242   154250635.2211       -470.972          41.000  
G08                                                                  24805389.283                       -1839.442          25.000  
> 2022 12 19 11 34 27.3980000  0 38                     
G05  21622257.890   113625731.572       -3082.301          45.000    21622245.766    88539481.112       -2401.451          33.000  
G07  24316820.118   127785751.788       -3333.155          28.000                                                                  
G13  19500323.672   102474891.472         -27.717          44.000                                                                  
G14  20400325.535   107204433.626        -768.119          48.000    20400321.872    83535907.279        -598.647          45.000  
G15  20455148.927   107492531.881        1681.569          37.000    20455144.729    83760397.093        1310.229          39.000  
C10  37967126.511   197704790.383        -252.801          40.000    37967113.597   152877832.809        -195.631          45.000  
C11  26219302.820   136530790.182         321.100          37.000    26219289.735   105574214.961         248.090          40.000  
C19  22923488.080   119368617.491        1442.075          40.000                                                                  
C20  21308492.235   110958910.125       -1631.700          42.000                                                                  
C32  24893817.862   129628641.423       -3797.828          36.000                                                                  
R10  19332997.132   103055753.646        1629.520          41.000                                                                  
R09  18984090.764   101373985.138       -1911.315          49.000    18984086.187    78846412.790       -1486.525          45.000  
R16  22810560.844   121849920.705       -4408.576          51.000    22810561.218    94772162.222       -3428.802          42.000  
R01  23251151.868   124290731.215        3850.879          36.000                                                                  
G17  23883381.390   125508015.308        2474.487          32.000    23883360.354                        1926.942          25.000  
G18  24673508.597   129660160.313       -2144.590          30.000    24673502.100                       -1671.520          27.000  
S23  37976979.234   199570371.475        -387.173          45.000  
S27  38963446.125   204754290.399        -396.256          38.000  
S36  37726333.138   198253216.888        -383.728          44.000  
E03  25618843.684   134627931.632        2035.891          31.000    25618851.435   103156497.575        1560.616          39.000  
C34  26400179.120   137472654.293        -791.350          28.000                                                                  
C37  21480790.248   111856111.097       -1162.324          45.000                                                                  
R07  19090681.923   102193913.421       -2299.144          48.000    19090679.333    79484144.377       -1787.902          41.000  
R08  19404306.532   103909178.967        1690.094          47.000    19404299.234    80818221.241        1314.833          42.000  
R18  23537342.563   125643932.378        2038.317          39.000                                                                  
R17  23033625.432   123257582.106        -717.030          39.000                                                                  
E05  22801662.118   119823542.398        -195.263          43.000    22801660.979    91812839.278        -149.560          45.000  
E09  24900645.729   130853775.870       -2620.208          47.000    24900644.027   100264574.992       -2007.573          45.000  
E24  23357472.196   122744345.510         470.087          47.000    23357468.785    94050847.293         360.245          47.000  
E25  26106370.528   137189902.814        2600.921          42.000    26106371.732   105119540.999        1993.126          43.000  
E31  24663144.824   129605699.664       -2223.315          44.000    24663145.330    99308266.107       -1703.580          47.000  
G20  23535112.275   123677848.954       -4081.558          35.000                                                                  
G23  24108938.282   126693325.240        2579.214          37.000    24108914.463                        2010.225          22.000  
G24  23709477.430   124594143.366        3043.271          37.000    23709481.751    97086363.856        2370.869          31.000  
G30  21578499.721   113395780.342       -2741.451          48.000    21578501.373    88360355.285       -2136.257          43.000  
E13                                                                  27762180.242   111786795.879        -397.189          27.000  
C07                                                                  38308071.659   154250729.337        -470.435          41.000  
G08                                                                  24805479.490                       -1838.591          25.000  
