     3.04           OBSERVATION DATA    M (MIXED)           RINEX VERSION / TYPE
sbf2rin-13.8.0      GFZ ODC             20221219 001458 UTC PGM / RUN BY / DATE
gfzrnx-3356         FILE MERGE          20221220 000010 UTC COMMENT
OBE400DEU                                                   MARKER NAME
14208M007                                                   MARKER NUMBER
gnss@gfz-potsdam.de DLR/GFZ                                 OBSERVER / AGENCY
3046419             SEPT ASTERX4        4.8.2               REC # / TYPE / VERS
5612                SEPCHOKE_B3E6   NONE                    ANT # / TYPE
        0.0700        0.0000        0.0000                  ANTENNA: DELTA H/E/N
  4186704.4300   834903.5830  4723664.8570                  APPROX POSITION XYZ
C   24 C1P C2I C5P C6I C7D C7I D1P D2I D5P D6I D7D D7I L1P  SYS / # / OBS TYPES
       L2I L5P L6I L7D L7I S1P S2I S5P S6I S7D S7I          SYS / # / OBS TYPES
E   20 C1C C5Q C6C C7Q C8Q D1C D5Q D6C D7Q D8Q L1C L5Q L6C  SYS / # / OBS TYPES
       L7Q L8Q S1C S5Q S6C S7Q S8Q                          SYS / # / OBS TYPES
G   18 C1C C1W C2L C2W C5Q D1C D2L D2W D5Q L1C L2L L2W L5Q  SYS / # / OBS TYPES
       S1C S1W S2L S2W S5Q                                  SYS / # / OBS TYPES
R   16 C1C C2C C2P C3Q D1C D2C D2P D3Q L1C L2C L2P L3Q S1C  SYS / # / OBS TYPES
       S2C S2P S3Q                                          SYS / # / OBS TYPES
S    8 C1C C5I D1C D5I L1C L5I S1C S5I                      SYS / # / OBS TYPES
 C1C    0.000 C2C    0.000 C2P    0.000                     GLONASS COD/PHS/BIS
 24 R01  1 R02 -4 R03  5 R04  6 R05  1 R06 -4 R07  5 R08  6 GLONASS SLOT / FRQ #
    R09 -2 R10 -7 R11  0 R12 -1 R13 -2 R14 -7 R15  0 R16 -1 GLONASS SLOT / FRQ #
    R17  4 R18 -3 R19  3 R20  2 R21  4 R22 -3 R23  3 R24  2 GLONASS SLOT / FRQ #
DBHZ                                                        SIGNAL STRENGTH UNIT
sbf2rin-13.8.0                          20221219 001458 UTC COMMENT
SEPTENTRIO RECEIVERS OUTPUT ALIGNED CARRIER PHASES.         COMMENT
NO FURTHER PHASE SHIFT APPLIED IN THE RINEX ENCODER.        COMMENT
sbf2rin-13.8.0                          20221219 003000 UTC COMMENT
sbf2rin-13.8.0                          20221219 004459 UTC COMMENT
sbf2rin-13.8.0                          20221219 010001 UTC COMMENT
sbf2rin-13.8.0                          20221219 011456 UTC COMMENT
sbf2rin-13.8.0                          20221219 012955 UTC COMMENT
sbf2rin-13.8.0                          20221219 014509 UTC COMMENT
sbf2rin-13.8.0                          20221219 020000 UTC COMMENT
sbf2rin-13.8.0                          20221219 021615 UTC COMMENT
sbf2rin-13.8.0                          20221219 022949 UTC COMMENT
sbf2rin-13.8.0                          20221219 024449 UTC COMMENT
sbf2rin-13.8.0                          20221219 025953 UTC COMMENT
sbf2rin-13.8.0                          20221219 031455 UTC COMMENT
sbf2rin-13.8.0                          20221219 032955 UTC COMMENT
sbf2rin-13.8.0                          20221219 034515 UTC COMMENT
sbf2rin-13.8.0                          20221219 035949 UTC COMMENT
sbf2rin-13.8.0                          20221219 041456 UTC COMMENT
sbf2rin-13.8.0                          20221219 042957 UTC COMMENT
sbf2rin-13.8.0                          20221219 044503 UTC COMMENT
sbf2rin-13.8.0                          20221219 045954 UTC COMMENT
sbf2rin-13.8.0                          20221219 051456 UTC COMMENT
sbf2rin-13.8.0                          20221219 052956 UTC COMMENT
sbf2rin-13.8.0                          20221219 054456 UTC COMMENT
sbf2rin-13.8.0                          20221219 060001 UTC COMMENT
sbf2rin-13.8.0                          20221219 061546 UTC COMMENT
sbf2rin-13.8.0                          20221219 062958 UTC COMMENT
sbf2rin-13.8.0                          20221219 064459 UTC COMMENT
sbf2rin-13.8.0                          20221219 070201 UTC COMMENT
sbf2rin-13.8.0                          20221219 071502 UTC COMMENT
sbf2rin-13.8.0                          20221219 073001 UTC COMMENT
sbf2rin-13.8.0                          20221219 074454 UTC COMMENT
sbf2rin-13.8.0                          20221219 080000 UTC COMMENT
sbf2rin-13.8.0                          20221219 081507 UTC COMMENT
sbf2rin-13.8.0                          20221219 083010 UTC COMMENT
sbf2rin-13.8.0                          20221219 084504 UTC COMMENT
sbf2rin-13.8.0                          20221219 085955 UTC COMMENT
sbf2rin-13.8.0                          20221219 091449 UTC COMMENT
sbf2rin-13.8.0                          20221219 092953 UTC COMMENT
sbf2rin-13.8.0                          20221219 094454 UTC COMMENT
sbf2rin-13.8.0                          20221219 095953 UTC COMMENT
sbf2rin-13.8.0                          20221219 101450 UTC COMMENT
sbf2rin-13.8.0                          20221219 103011 UTC COMMENT
sbf2rin-13.8.0                          20221219 104500 UTC COMMENT
sbf2rin-13.8.0                          20221219 155654 UTC COMMENT
sbf2rin-13.8.0                          20221219 155806 UTC COMMENT
sbf2rin-13.8.0                          20221219 160224 UTC COMMENT
sbf2rin-13.8.0                          20221219 161004 UTC COMMENT
sbf2rin-13.8.0                          20221219 161652 UTC COMMENT
sbf2rin-13.8.0                          20221219 162104 UTC COMMENT
sbf2rin-13.8.0                          20221219 162537 UTC COMMENT
sbf2rin-13.8.0                          20221219 163019 UTC COMMENT
sbf2rin-13.8.0                          20221219 163415 UTC COMMENT
sbf2rin-13.8.0                          20221219 164519 UTC COMMENT
sbf2rin-13.8.0                          20221219 164237 UTC COMMENT
sbf2rin-13.8.0                          20221219 170130 UTC COMMENT
sbf2rin-13.8.0                          20221219 171505 UTC COMMENT
sbf2rin-13.8.0                          20221219 171922 UTC COMMENT
sbf2rin-13.8.0                          20221219 172056 UTC COMMENT
sbf2rin-13.8.0                          20221219 173127 UTC COMMENT
sbf2rin-13.8.0                          20221219 173418 UTC COMMENT
sbf2rin-13.8.0                          20221219 174116 UTC COMMENT
sbf2rin-13.8.0                          20221219 174758 UTC COMMENT
sbf2rin-13.8.0                          20221219 175335 UTC COMMENT
sbf2rin-13.8.0                          20221219 180000 UTC COMMENT
sbf2rin-13.8.0                          20221219 181325 UTC COMMENT
sbf2rin-13.8.0                          20221219 181150 UTC COMMENT
sbf2rin-13.8.0                          20221219 181644 UTC COMMENT
sbf2rin-13.8.0                          20221219 182253 UTC COMMENT
sbf2rin-13.8.0                          20221219 183208 UTC COMMENT
sbf2rin-13.8.0                          20221219 183542 UTC COMMENT
sbf2rin-13.8.0                          20221219 184134 UTC COMMENT
sbf2rin-13.8.0                          20221219 184640 UTC COMMENT
sbf2rin-13.8.0                          20221219 184937 UTC COMMENT
sbf2rin-13.8.0                          20221219 185605 UTC COMMENT
sbf2rin-13.8.0                          20221219 190203 UTC COMMENT
sbf2rin-13.8.0                          20221219 191648 UTC COMMENT
sbf2rin-13.8.0                          20221219 192003 UTC COMMENT
sbf2rin-13.8.0                          20221219 193020 UTC COMMENT
sbf2rin-13.8.0                          20221219 194458 UTC COMMENT
sbf2rin-13.8.0                          20221219 195953 UTC COMMENT
sbf2rin-13.8.0                          20221219 201612 UTC COMMENT
sbf2rin-13.8.0                          20221219 203144 UTC COMMENT
sbf2rin-13.8.0                          20221219 204454 UTC COMMENT
sbf2rin-13.8.0                          20221219 205951 UTC COMMENT
sbf2rin-13.8.0                          20221219 211555 UTC COMMENT
sbf2rin-13.8.0                          20221219 213008 UTC COMMENT
sbf2rin-13.8.0                          20221219 214457 UTC COMMENT
sbf2rin-13.8.0                          20221219 215950 UTC COMMENT
sbf2rin-13.8.0                          20221219 221456 UTC COMMENT
sbf2rin-13.8.0                          20221219 223055 UTC COMMENT
sbf2rin-13.8.0                          20221219 224554 UTC COMMENT
sbf2rin-13.8.0                          20221219 230006 UTC COMMENT
sbf2rin-13.8.0                          20221219 231505 UTC COMMENT
sbf2rin-13.8.0                          20221219 232953 UTC COMMENT
sbf2rin-13.8.0                          20221219 234551 UTC COMMENT
sbf2rin-13.8.0                          20221219 235950 UTC COMMENT
C L1P  0.00000                                              SYS / PHASE SHIFT
C L2I                                                       SYS / PHASE SHIFT
C L5P  0.00000                                              SYS / PHASE SHIFT
C L6I                                                       SYS / PHASE SHIFT
C L7D                                                       SYS / PHASE SHIFT
C L7I                                                       SYS / PHASE SHIFT
E L1C  0.00000                                              SYS / PHASE SHIFT
E L5Q  0.00000                                              SYS / PHASE SHIFT
E L6C  0.00000                                              SYS / PHASE SHIFT
E L7Q  0.00000                                              SYS / PHASE SHIFT
E L8Q  0.00000                                              SYS / PHASE SHIFT
G L1C                                                       SYS / PHASE SHIFT
G L2L  0.00000                                              SYS / PHASE SHIFT
G L2W                                                       SYS / PHASE SHIFT
G L5Q  0.00000                                              SYS / PHASE SHIFT
R L1C                                                       SYS / PHASE SHIFT
R L2C                                                       SYS / PHASE SHIFT
R L2P  0.00000                                              SYS / PHASE SHIFT
R L3Q  0.00000                                              SYS / PHASE SHIFT
S L1C                                                       SYS / PHASE SHIFT
S L5I                                                       SYS / PHASE SHIFT
GFZRNX.NUM_EPOCHS: 2880                                     COMMENT
   127                                                      # OF SATELLITES
   C02        1451        1532        1751        1451      PRN / # OF OBS
        1532        1751        1278        1442        1714PRN / # OF OBS
              1451        1532        1751                  PRN / # OF OBS
   C05        2879        2878        2880        2879      PRN / # OF OBS
        2878        2880        2879        2878        2880PRN / # OF OBS
              2879        2878        2880                  PRN / # OF OBS
   C06         675         675         675         675      PRN / # OF OBS
         675         675         675         675         675PRN / # OF OBS
               675         675         675                  PRN / # OF OBS
   C07         658         658         658         658      PRN / # OF OBS
         658         658         654         657         658PRN / # OF OBS
               658         658         658                  PRN / # OF OBS
   C08         857         857         857         857      PRN / # OF OBS
         857         857         857         857         857PRN / # OF OBS
               857         857         857                  PRN / # OF OBS
   C09        1196        1196        1196        1196      PRN / # OF OBS
        1196        1196        1191        1196        1194PRN / # OF OBS
              1196        1196        1196                  PRN / # OF OBS
   C10        1097        1096        1097        1097      PRN / # OF OBS
        1096        1097        1071        1090        1094PRN / # OF OBS
              1097        1096        1097                  PRN / # OF OBS
   C11         469         469         469         469      PRN / # OF OBS
         469         469         469         469         469PRN / # OF OBS
               469         469         469                  PRN / # OF OBS
   C12         669         670         670         669      PRN / # OF OBS
         670         670         656         670         670PRN / # OF OBS
               669         670         670                  PRN / # OF OBS
   C13        1176        1176        1176        1176      PRN / # OF OBS
        1176        1176        1173        1176        1176PRN / # OF OBS
              1176        1176        1176                  PRN / # OF OBS
   C14         682         681         682         682      PRN / # OF OBS
         681         682         681         681         682PRN / # OF OBS
               682         681         682                  PRN / # OF OBS
   C16         644         644         644         644      PRN / # OF OBS
         644         644         644         644         644PRN / # OF OBS
               644         644         644                  PRN / # OF OBS
   C19   817   817   817   817   816         817   817   817PRN / # OF OBS
         817   816         816   815   816   815   816      PRN / # OF OBS
         817   817   817   817   816                        PRN / # OF OBS
   C20  1163  1162  1162  1163  1159        1163  1162  1162PRN / # OF OBS
        1163  1159        1162  1161  1162  1163  1159      PRN / # OF OBS
        1163  1162  1162  1163  1159                        PRN / # OF OBS
   C21   388   390   389   390   386         388   390   389PRN / # OF OBS
         390   386         387   387   387   387   386      PRN / # OF OBS
         388   390   389   390   386                        PRN / # OF OBS
   C22   809   811   811   811   810         809   811   811PRN / # OF OBS
         811   810         809   808   811   808   810      PRN / # OF OBS
         809   811   811   811   810                        PRN / # OF OBS
   C23   806   806   806   806   803         806   806   806PRN / # OF OBS
         806   803         804   805   806   805   803      PRN / # OF OBS
         806   806   806   806   803                        PRN / # OF OBS
   C24   575   575   575   575   574         575   575   575PRN / # OF OBS
         575   574         573   574   575   574   574      PRN / # OF OBS
         575   575   575   575   574                        PRN / # OF OBS
   C25   309   309   309   309   309         309   309   309PRN / # OF OBS
         309   309         309   309   309   309   309      PRN / # OF OBS
         309   309   309   309   309                        PRN / # OF OBS
   C26   983   991   991   991   988         983   991   991PRN / # OF OBS
         991   988         982   990   990   990   988      PRN / # OF OBS
         983   991   991   991   988                        PRN / # OF OBS
   C27  1076  1076  1076  1076  1076        1076  1076  1076PRN / # OF OBS
        1076  1076        1076  1076  1076  1076  1076      PRN / # OF OBS
        1076  1076  1076  1076  1076                        PRN / # OF OBS
   C28   761   762   762   762   762         761   762   762PRN / # OF OBS
         762   762         761   762   762   762   762      PRN / # OF OBS
         761   762   762   762   762                        PRN / # OF OBS
   C29  1014  1014  1015  1015  1012        1014  1014  1015PRN / # OF OBS
        1015  1012        1012  1013  1015  1014  1012      PRN / # OF OBS
        1014  1014  1015  1015  1012                        PRN / # OF OBS
   C30   695   695   695   695   691         695   695   695PRN / # OF OBS
         695   691         695   695   695   695   691      PRN / # OF OBS
         695   695   695   695   691                        PRN / # OF OBS
   C32   743   744   744   744   735         743   744   744PRN / # OF OBS
         744   735         742   743   744   744   735      PRN / # OF OBS
         743   744   744   744   735                        PRN / # OF OBS
   C33   859   858   859   859   859         859   858   859PRN / # OF OBS
         859   859         859   858   859   859   859      PRN / # OF OBS
         859   858   859   859   859                        PRN / # OF OBS
   C34   345   345   345   345   345         345   345   345PRN / # OF OBS
         345   345         345   345   345   345   345      PRN / # OF OBS
         345   345   345   345   345                        PRN / # OF OBS
   C35   725   726   726   726   726         725   726   726PRN / # OF OBS
         726   726         725   725   726   725   726      PRN / # OF OBS
         725   726   726   726   726                        PRN / # OF OBS
   C36   887   890   891   890   889         887   890   891PRN / # OF OBS
         890   889         887   889   890   888   889      PRN / # OF OBS
         887   890   891   890   889                        PRN / # OF OBS
   C37  1035  1036  1036  1036  1030        1035  1036  1036PRN / # OF OBS
        1036  1030        1035  1034  1036  1035  1030      PRN / # OF OBS
        1035  1036  1036  1036  1030                        PRN / # OF OBS
   C38   822   822   822   822   822         822   822   822PRN / # OF OBS
         822   822         822   822   822   822   822      PRN / # OF OBS
         822   822   822   822   822                        PRN / # OF OBS
   C39   701   701   701   701   701         701   701   701PRN / # OF OBS
         701   701         701   701   701   701   701      PRN / # OF OBS
         701   701   701   701   701                        PRN / # OF OBS
   C40   696   696   696   696   696         696   696   696PRN / # OF OBS
         696   696         696   695   696   696   696      PRN / # OF OBS
         696   696   696   696   696                        PRN / # OF OBS
   C41  1009  1011  1011  1012  1002        1009  1011  1011PRN / # OF OBS
        1012  1002         995  1002  1010  1010  1002      PRN / # OF OBS
        1009  1011  1011  1012  1002                        PRN / # OF OBS
   C42   668   668   668   668   668         668   668   668PRN / # OF OBS
         668   668         668   668   668   668   668      PRN / # OF OBS
         668   668   668   668   668                        PRN / # OF OBS
   C43   671   672   671   672   671         671   672   671PRN / # OF OBS
         672   671         671   672   671   672   671      PRN / # OF OBS
         671   672   671   672   671                        PRN / # OF OBS
   C44   560   559   559   559   556         560   559   559PRN / # OF OBS
         559   556         559   557   559   559   556      PRN / # OF OBS
         560   559   559   559   556                        PRN / # OF OBS
   C45   676   677   677   676   676         676   677   677PRN / # OF OBS
         676   676         675   675   675   676   676      PRN / # OF OBS
         676   677   677   676   676                        PRN / # OF OBS
   C46   827   827   827   827   820         827   827   827PRN / # OF OBS
         827   820         822   822   824   824   820      PRN / # OF OBS
         827   827   827   827   820                        PRN / # OF OBS
   C56        1139        1151                    1139      PRN / # OF OBS
        1151                    1139        1139            PRN / # OF OBS
              1139        1151                              PRN / # OF OBS
   C57         537         537                     537      PRN / # OF OBS
         537                     537         537            PRN / # OF OBS
               537         537                              PRN / # OF OBS
   C60        1418        1457  1453              1418      PRN / # OF OBS
        1457  1453              1403        1437  1453      PRN / # OF OBS
              1418        1457  1453                        PRN / # OF OBS
   E01   823   825   825   825   825   823   825   825   825PRN / # OF OBS
         825   820   825   824   825   825   823   825   825PRN / # OF OBS
         825   825                                          PRN / # OF OBS
   E02  1310  1313  1314  1313  1312  1310  1313  1314  1313PRN / # OF OBS
        1312  1309  1313  1313  1313  1312  1310  1313  1314PRN / # OF OBS
        1313  1312                                          PRN / # OF OBS
   E03  1070  1072  1072  1071  1069  1070  1072  1072  1071PRN / # OF OBS
        1069  1067  1072  1071  1071  1069  1070  1072  1072PRN / # OF OBS
        1071  1069                                          PRN / # OF OBS
   E04  1165  1168  1168  1167  1165  1165  1168  1168  1167PRN / # OF OBS
        1165  1165  1167  1168  1167  1165  1165  1168  1168PRN / # OF OBS
        1167  1165                                          PRN / # OF OBS
   E05  1305  1310  1310  1309  1309  1305  1310  1310  1309PRN / # OF OBS
        1309  1304  1310  1309  1309  1309  1305  1310  1310PRN / # OF OBS
        1309  1309                                          PRN / # OF OBS
   E07   894   895   896   896   896   894   895   896   896PRN / # OF OBS
         896   891   893   893   894   896   894   895   896PRN / # OF OBS
         896   896                                          PRN / # OF OBS
   E08   857   871   869   869   869   857   871   869   869PRN / # OF OBS
         869   854   868   867   866   869   857   871   869PRN / # OF OBS
         869   869                                          PRN / # OF OBS
   E09  1320  1319  1320  1320  1311  1320  1319  1320  1320PRN / # OF OBS
        1311  1318  1302  1319  1319  1311  1320  1319  1320PRN / # OF OBS
        1320  1311                                          PRN / # OF OBS
   E10  1531  1533  1532  1532  1532  1531  1533  1532  1532PRN / # OF OBS
        1532  1530  1533  1532  1530  1532  1531  1533  1532PRN / # OF OBS
        1532  1532                                          PRN / # OF OBS
   E11  1522  1530  1528  1528  1528  1522  1530  1528  1528PRN / # OF OBS
        1528  1513  1516  1525  1526  1528  1522  1530  1528PRN / # OF OBS
        1528  1528                                          PRN / # OF OBS
   E12  1327  1336  1336  1337  1336  1327  1336  1336  1337PRN / # OF OBS
        1336  1245  1335  1334  1337  1336  1327  1336  1336PRN / # OF OBS
        1337  1336                                          PRN / # OF OBS
   E13   594   596   596   595   594   594   596   596   595PRN / # OF OBS
         594   593   596   596   595   594   594   596   596PRN / # OF OBS
         595   594                                          PRN / # OF OBS
   E14   538   550   549   545   550   538   550   549   545PRN / # OF OBS
         550   537   549   549   544   550   538   550   549PRN / # OF OBS
         545   550                                          PRN / # OF OBS
   E15  1018  1019  1018  1019  1019  1018  1019  1018  1019PRN / # OF OBS
        1019  1015  1019  1018  1019  1019  1018  1019  1018PRN / # OF OBS
        1019  1019                                          PRN / # OF OBS
   E18  1104  1114  1109  1112  1106  1104  1114  1109  1112PRN / # OF OBS
        1106  1101  1108  1106  1106  1106  1104  1114  1109PRN / # OF OBS
        1112  1106                                          PRN / # OF OBS
   E19  1063  1088  1060  1083  1086  1063  1088  1060  1083PRN / # OF OBS
        1086   995  1080  1060  1082  1086  1063  1088  1060PRN / # OF OBS
        1083  1086                                          PRN / # OF OBS
   E21   823   826   825   825   823   823   826   825   825PRN / # OF OBS
         823   823   826   825   825   823   823   826   825PRN / # OF OBS
         825   823                                          PRN / # OF OBS
   E24  1315  1315  1315  1315  1314  1315  1315  1315  1315PRN / # OF OBS
        1314  1313  1314  1315  1315  1314  1315  1315  1315PRN / # OF OBS
        1315  1314                                          PRN / # OF OBS
   E25  1463  1469  1468  1469  1460  1463  1469  1468  1469PRN / # OF OBS
        1460  1451  1467  1465  1468  1460  1463  1469  1468PRN / # OF OBS
        1469  1460                                          PRN / # OF OBS
   E26   526   530   530   529   529   526   530   530   529PRN / # OF OBS
         529   522   529   530   529   529   526   530   530PRN / # OF OBS
         529   529                                          PRN / # OF OBS
   E27   948   951   951   951   950   948   951   951   951PRN / # OF OBS
         950   948   951   951   951   950   948   951   951PRN / # OF OBS
         951   950                                          PRN / # OF OBS
   E30  1123  1124  1124  1123  1124  1123  1124  1124  1123PRN / # OF OBS
        1124  1122  1123  1123  1123  1124  1123  1124  1124PRN / # OF OBS
        1123  1124                                          PRN / # OF OBS
   E31  1061  1062  1062  1061  1061  1061  1062  1062  1061PRN / # OF OBS
        1061  1061  1061  1061  1059  1061  1061  1062  1062PRN / # OF OBS
        1061  1061                                          PRN / # OF OBS
   E33   912   914   914   914   914   912   914   914   914PRN / # OF OBS
         914   910   914   914   914   914   912   914   914PRN / # OF OBS
         914   914                                          PRN / # OF OBS
   E34  1427  1428  1426  1429  1428  1427  1428  1426  1429PRN / # OF OBS
        1428  1426  1427  1425  1429  1428  1427  1428  1426PRN / # OF OBS
        1429  1428                                          PRN / # OF OBS
   E36  1534  1537  1533  1536  1536  1534  1537  1533  1536PRN / # OF OBS
        1536  1531  1536  1532  1535  1536  1534  1537  1533PRN / # OF OBS
        1536  1536                                          PRN / # OF OBS
   G01  1011  1009  1011  1009  1012  1011  1011  1009  1012PRN / # OF OBS
        1010  1011  1009  1011  1011  1009  1011  1009  1012PRN / # OF OBS
   G02  1140  1136        1136        1140        1136      PRN / # OF OBS
        1138        1136        1140  1136        1136      PRN / # OF OBS
   G03   909   882   910   882   910   909   910   882   910PRN / # OF OBS
         882   885   880   909   909   882   910   882   910PRN / # OF OBS
   G04  1025   977  1017   977  1010  1025  1017   977  1010PRN / # OF OBS
         985   988   977  1008  1025   977  1017   977  1010PRN / # OF OBS
   G05  1111  1081  1106  1081        1111  1106  1081      PRN / # OF OBS
        1082  1067  1080        1111  1081  1106  1081      PRN / # OF OBS
   G06  1090  1079  1088  1079  1089  1090  1088  1079  1089PRN / # OF OBS
        1081  1073  1078  1089  1090  1079  1088  1079  1089PRN / # OF OBS
   G07  1068  1036  1063  1036        1068  1063  1036      PRN / # OF OBS
        1042  1043  1036        1068  1036  1063  1036      PRN / # OF OBS
   G08  1048  1043  1051  1043  1051  1048  1051  1043  1051PRN / # OF OBS
        1044  1050  1043  1051  1048  1043  1051  1043  1051PRN / # OF OBS
   G09   925   903   924   903   925   925   924   903   925PRN / # OF OBS
         905   924   902   925   925   903   924   903   925PRN / # OF OBS
   G10  1133  1126  1130  1126  1134  1133  1130  1126  1134PRN / # OF OBS
        1127  1128  1126  1130  1133  1126  1130  1126  1134PRN / # OF OBS
   G11  1150  1144  1147  1144  1156  1150  1147  1144  1156PRN / # OF OBS
        1146  1144  1144  1156  1150  1144  1147  1144  1156PRN / # OF OBS
   G12   900   893   896   893         900   896   893      PRN / # OF OBS
         894   886   892         900   893   896   893      PRN / # OF OBS
   G13   997   988         988         997         988      PRN / # OF OBS
         992         988         997   988         988      PRN / # OF OBS
   G14  1134  1127  1134  1127  1134  1134  1134  1127  1134PRN / # OF OBS
        1130  1133  1127  1134  1134  1127  1134  1127  1134PRN / # OF OBS
   G15  1047  1043  1043  1043        1047  1043  1043      PRN / # OF OBS
        1044  1042  1043        1047  1043  1043  1043      PRN / # OF OBS
   G16  1104  1100        1100        1104        1100      PRN / # OF OBS
        1100        1099        1104  1100        1100      PRN / # OF OBS
   G17  1173  1169  1160  1169        1173  1160  1169      PRN / # OF OBS
        1169  1160  1168        1173  1169  1160  1169      PRN / # OF OBS
   G18  1089  1066  1088  1066  1089  1089  1088  1066  1089PRN / # OF OBS
        1068  1078  1066  1089  1089  1066  1088  1066  1089PRN / # OF OBS
   G19  1145  1137        1137        1145        1137      PRN / # OF OBS
        1138        1136        1145  1137        1137      PRN / # OF OBS
   G20  1112  1099        1099        1112        1099      PRN / # OF OBS
        1100        1098        1112  1099        1099      PRN / # OF OBS
   G21   978   935         935         978         935      PRN / # OF OBS
         936         934         978   935         935      PRN / # OF OBS
   G22  1175  1158        1158        1175        1158      PRN / # OF OBS
        1167        1158        1175  1158        1158      PRN / # OF OBS
   G23  1153  1146  1153  1146  1153  1153  1153  1146  1153PRN / # OF OBS
        1148  1151  1146  1153  1153  1146  1153  1146  1153PRN / # OF OBS
   G24   902   899   903   899   902   902   903   899   902PRN / # OF OBS
         899   903   899   902   902   899   903   899   902PRN / # OF OBS
   G25   853   836   851   836   853   853   851   836   853PRN / # OF OBS
         836   843   836   852   853   836   851   836   853PRN / # OF OBS
   G26  1058  1049  1055  1049  1058  1058  1055  1049  1058PRN / # OF OBS
        1051  1052  1049  1058  1058  1049  1055  1049  1058PRN / # OF OBS
   G27  1007  1005  1005  1005  1007  1007  1005  1005  1007PRN / # OF OBS
        1005  1004  1004  1007  1007  1005  1005  1005  1007PRN / # OF OBS
   G29  1017  1007  1012  1007        1017  1012  1007      PRN / # OF OBS
        1007  1000  1006        1017  1007  1012  1007      PRN / # OF OBS
   G30  1008   974  1007   974  1008  1008  1007   974  1008PRN / # OF OBS
         999   988   973  1008  1008   974  1007   974  1008PRN / # OF OBS
   G31  1114  1075  1072  1075        1114  1072  1075      PRN / # OF OBS
        1076  1072  1074        1114  1075  1072  1075      PRN / # OF OBS
   G32  1168  1157  1166  1157  1174  1168  1166  1157  1174PRN / # OF OBS
        1160  1157  1157  1165  1168  1157  1166  1157  1174PRN / # OF OBS
   R01  1222  1222  1212        1222  1222  1212        1219PRN / # OF OBS
        1219  1210        1222  1222  1212                  PRN / # OF OBS
   R02  1148  1148  1147        1148  1148  1147        1148PRN / # OF OBS
        1147  1147        1148  1148  1147                  PRN / # OF OBS
   R03  1134  1132  1130        1134  1132  1130        1132PRN / # OF OBS
        1131  1130        1134  1132  1130                  PRN / # OF OBS
   R04  1064  1064  1057  1062  1064  1064  1057  1062  1064PRN / # OF OBS
        1064  1057  1062  1064  1064  1057  1062            PRN / # OF OBS
   R05  1033  1032  1029  1029  1033  1032  1029  1029  1033PRN / # OF OBS
        1031  1028  1029  1033  1032  1029  1029            PRN / # OF OBS
   R06   873                     873                     853PRN / # OF OBS
                           873                              PRN / # OF OBS
   R07   963   963   962         963   963   962         960PRN / # OF OBS
         962   961         963   963   962                  PRN / # OF OBS
   R08   983   983   983         983   983   983         983PRN / # OF OBS
         983   983         983   983   983                  PRN / # OF OBS
   R09  1036  1035  1026  1033  1036  1035  1026  1033  1027PRN / # OF OBS
        1025  1020  1033  1036  1035  1026  1033            PRN / # OF OBS
   R10   859                     859                     859PRN / # OF OBS
                           859                              PRN / # OF OBS
   R11   971   971   962   968   971   971   962   968   970PRN / # OF OBS
         969   961   968   971   971   962   968            PRN / # OF OBS
   R12  1024  1025  1024  1024  1024  1025  1024  1024  1023PRN / # OF OBS
        1023  1023  1024  1024  1025  1024  1024            PRN / # OF OBS
   R13  1026  1021  1022        1026  1021  1022        1005PRN / # OF OBS
        1001  1001        1026  1021  1022                  PRN / # OF OBS
   R14  1056  1047  1040        1056  1047  1040        1052PRN / # OF OBS
        1041  1038        1056  1047  1040                  PRN / # OF OBS
   R15  1136  1136  1134        1136  1136  1134        1136PRN / # OF OBS
        1136  1134        1136  1136  1134                  PRN / # OF OBS
   R16  1068  1069  1068  1069  1068  1069  1068  1069  1068PRN / # OF OBS
        1069  1068  1069  1068  1069  1068  1069            PRN / # OF OBS
   R17  1263  1264  1261        1263  1264  1261        1262PRN / # OF OBS
        1263  1260        1263  1264  1261                  PRN / # OF OBS
   R18  1171  1171  1169        1171  1171  1169        1170PRN / # OF OBS
        1170  1168        1171  1171  1169                  PRN / # OF OBS
   R19  1009  1107  1010        1009  1107  1010         990PRN / # OF OBS
        1059  1003        1009  1107  1010                  PRN / # OF OBS
   R20   946   924   919         946   924   919         936PRN / # OF OBS
         917   912         946   924   919                  PRN / # OF OBS
   R21   935   935   931   932   935   935   931   932   934PRN / # OF OBS
         933   931   932   935   935   931   932            PRN / # OF OBS
   R22   980   979   975   976   980   979   975   976   977PRN / # OF OBS
         976   975   976   980   979   975   976            PRN / # OF OBS
   R23   939                     939                     934PRN / # OF OBS
                           939                              PRN / # OF OBS
   R24  1233  1232  1229  1232  1233  1232  1229  1232  1233PRN / # OF OBS
        1232  1229  1232  1233  1232  1229  1232            PRN / # OF OBS
   S23  2879  2821  2879  2821  2879  2821  2879  2821      PRN / # OF OBS
   S26  1889   147  1889   147  1889   147  1889   147      PRN / # OF OBS
   S36  2880  2844  2880  2843  2880  2844  2880  2844      PRN / # OF OBS
   S44  2322   843  2322   843  2322   843  2322   843      PRN / # OF OBS
    30.000                                                  INTERVAL
  2022    12    19     0     0    0.0000000     GPS         TIME OF FIRST OBS
  2022    12    19    23    59   30.0000000     GPS         TIME OF LAST OBS
                                                            END OF HEADER
> 2022 12 19 00 00 00.0000000  0 47
C02                  41252448.118 5                  41252448.603 5                  41252443.782 6                        -3.688 5                        -3.110 5                        -3.006 6                 214812333.25105                 174552614.42505                 166106488.85806                        33.500                          33.500                          37.250
C05                  39549258.383 6                  39549258.935 6                  39549256.363 6                         3.249 6                         2.619 6                         2.402 6                 205943443.23106                 167345936.56706                 159248530.33906                        38.750                          38.500                          41.750
C08                  41183411.269 5                  41183408.286 6                  41183408.351 5                     -1112.005 5                      -903.383 6                      -859.731 5                 214452827.07505                 174260473.26706                 165828511.19705                        32.500                          36.000                          35.750
C11                  21732884.905 8                  21732884.468 8                  21732883.804 8                       310.921 8                       252.647 8                       240.455 8                 113168859.89608                  91958970.92308                  87509348.14508                        48.500                          52.250                          53.250
C12                  23355295.719 7                  23355295.674 8                  23355295.259 8                     -2170.411 7                     -1763.686 8                     -1678.359 8                 121617164.63807                  98823914.29908                  94042112.72308                        45.500                          48.500                          50.250
C13                  40100402.569 6                  40100404.787 6                  40100406.074 6                      -988.896 6                      -803.635 6                      -764.846 6                 208813316.05206                 169677946.13706                 161467723.91206                        39.500                          38.250                          38.750
C23  25679966.901 6  25679964.985 7  25679963.054 7  25679961.210 7  25679961.184 7                     -2021.118 6     -2002.619 7     -1509.121 7     -1627.376 7     -1548.662 7                 134949135.73006 133722320.97807 100773689.01107 108660320.16007 103402563.40107                        40.750          42.000          44.250          45.250          44.000
C25  26819469.075 5  26819467.207 6  26819469.333 6  26819469.708 6  26819468.232 6                     -2985.403 5     -2958.509 6     -2229.356 6     -2404.059 6     -2287.782 6                 140937239.38605 139655981.16506 105245328.65406 113481923.10406 107990854.28306                        34.250          36.250          38.500          37.750          38.250
C34  21799245.524 8  21799243.338 8  21799246.281 8  21799246.616 8  21799244.888 8                      -903.969 8      -895.759 8      -675.028 8      -727.898 8      -692.653 8                 114555804.99608 113514377.14508  85544920.35508  92239742.85908  87776521.61308                        49.000          51.750          52.000          52.250          52.250
C37  26187978.210 6  26187975.507 6  26187981.701 7  26187982.040 7  26187979.996 7                       223.634 6       221.540 6       166.913 7       180.040 7       171.287 7                 137618750.33906 136367660.38606 102767265.34007 110809922.15007 105448145.03807                        39.000          41.250          43.000          43.000          42.250
C42  24185028.619 7  24185025.402 7  24185039.352 8  24185037.087 7  24185037.701 7                      3069.162 7      3041.313 7      2291.908 8      2471.250 7      2351.712 7                 127093167.55207 125937778.59607  94907287.74708 102334809.30107  97383125.58807                        44.500          46.500          48.000          47.000          46.500
C44  25364935.853 6  25364934.475 6  25364938.148 6  25364937.236 7  25364936.992 7                     -2833.216 6     -2807.342 6     -2115.634 6     -2281.224 7     -2170.755 7                 133293622.30906 132081852.54706  99537449.34606 107327331.71707 102134071.43707                        39.000          41.000          40.500          42.250          42.500
C60                  41039196.105 6                  41039183.032 6  41039183.439 6                                       -60.434 6                       -49.216 6       -46.948 6                                 213701907.14406                 173650286.39906 165247909.69006                                        37.000                          38.250          37.250
E01  27456356.245 6  27456357.721 6  27456357.427 7  27456355.756 6  27456356.662 7     -3206.312 6     -2394.377 6     -2602.570 7     -2456.859 6     -2425.630 7 144284170.07206 107744693.65706 117113787.72007 110555416.79906 109150063.30507        38.750          41.250          42.250          41.750          44.500
E07  25993193.463 7  25993196.436 7  25993192.736 7  25993193.318 7  25993194.355 8       932.058 7       696.040 7       756.541 7       714.130 7       705.086 8 136595168.40007 102002900.68607 110872693.62307 104663834.72107 103333371.77308        43.500          47.000          44.750          46.250          49.500
E08  27813814.272 6  27813813.556 6  27813813.216 6  27813811.382 6  27813812.520 7     -1546.705 6     -1154.968 6     -1255.358 6     -1185.182 6     -1170.071 7 146162606.83506 109147414.17306 118638489.07406 111994731.36906 110571072.34507        36.500          40.000          41.000          40.000          43.000
E12  26555530.535 6  26555529.069 6  26555527.446 6  26555527.090 6  26555528.075 7      2227.868 6      1663.679 6      1808.344 6      1706.907 6      1685.294 7 139550247.25206 104209604.05706 113271303.53306 106928111.63806 105568860.41807        38.000          41.750          41.750          41.500          44.500
E14  18406334.258 8  18406334.743 8  18406334.099 8  18406332.695 8  18406333.649 9     -4191.966 8     -3130.352 8     -3402.528 8     -3211.999 8     -3171.173 9  96725960.80608  72230439.54608  78511340.49308  74114701.39908  73172571.04609        49.250          52.500          52.250          53.000          56.000
E24  26400745.206 7  26400744.567 7  26400745.063 7  26400743.007 7  26400743.749 8      1056.963 7       789.251 7       857.890 7       809.849 7       799.553 8 138736851.69607 103602194.75807 112611081.12207 106304855.93507 104953528.42108        43.000          44.750          45.250          46.250          48.500
E26  25223194.112 7  25223193.839 8  25223194.751 8  25223191.941 8  25223192.779 8     -1684.690 7     -1258.051 8     -1367.463 8     -1290.939 8     -1274.496 8 132548866.80607  98981344.25708 107588400.72508 101563449.57108 100272396.48608        46.250          49.250          50.000          50.000          52.750
E31  25157208.752 7  25157210.781 8  25157207.891 8  25157209.092 8  25157209.913 8     -1549.658 7     -1157.225 8     -1257.840 8     -1187.366 8     -1172.298 8 132202020.14707  98722289.97308 107306828.67608 101297650.55808 100009977.83908        45.250          48.250          49.000          49.250          52.000
E33  23569970.723 7  23569970.259 8  23569970.948 8  23569968.547 8  23569969.340 9       433.918 7       323.999 8       352.192 8       332.449 8       328.225 9 123861098.33807  92493695.79408 100536614.94708  94906566.27108  93700132.10609        47.500          52.500          53.000          53.000          55.750
G01  24286309.130 6  24286308.965 3  24286312.284 6  24286312.002 3  24286310.634 7      3381.387 6      2634.937 6      2634.858 3      2525.160 7 127625412.78506  99448388.60806  99448383.59903  95304696.86707        37.500          19.750          36.500          19.750          43.000
G08  20604995.385 8  20604994.701 9  20604996.732 8  20604995.899 9  20604993.936 9      1084.738 8       845.234 8       845.251 9       810.041 9 108279998.28208  84374031.56408  84374031.55809  80858443.26109        49.750          55.000          48.250          55.000          54.000
G10  20909706.235 8  20909705.627 9  20909706.406 8  20909706.457 9  20909703.898 8      -752.740 8      -586.599 8      -586.549 9      -562.134 8 109881268.66108  85621774.20508  85621783.19709  82054202.66108        51.250          56.250          48.000          56.250          53.750
G14  25834225.738 5  25834225.916 2  25834225.078 5  25834223.497 2  25834228.228 6      3220.912 5      2509.624 5      2509.782 2      2404.990 6 135759774.95705 105786828.28105 105786826.25102 101379060.79706        31.250          13.500          33.000          13.500          38.750
G16  23679634.545 6  23679633.602 4                  23679632.433 4                     -3645.391 6                     -2840.573 4                 124437338.39606                  96964162.22704                        41.500          27.000                          27.000
G18  25250898.793 5  25250898.713 2  25250899.676 5  25250899.278 2  25250902.910 7     -3234.174 5     -2520.061 5     -2520.152 2     -2415.117 7 132694431.59405 103398288.81305 103398293.83902  99090050.34407        35.750          17.750          35.250          17.750          42.000
G21  22201002.100 7  22201000.813 5                  22200999.836 5                      2027.688 7                      1580.015 5                 116667069.92607                  90909389.39805                        47.000          35.500                          35.500
G22  25457655.899 5                                                                      3086.880 5                                                 133780886.33605                                                        33.250
G23  22521564.061 7  22521563.731 5  22521562.749 7  22521563.241 5  22521565.038 8     -2744.764 7     -2138.693 7     -2138.771 5     -2049.689 8 118351643.61907  92222093.97107  92222073.97705  88379523.01808        45.500          35.500          44.250          35.500          48.250
G27  20382186.104 8  20382185.411 9  20382186.516 8  20382186.270 9  20382185.276 9     -1322.631 8     -1030.617 8     -1030.623 9      -987.660 9 107109135.21808  83461675.44808  83461677.45009  79984105.54009        50.250          56.000          48.750          56.000          54.750
G30  25822400.089 4  25822399.218 1  25822400.126 4  25822399.437 1  25822398.659 5     -1125.611 4      -876.460 4      -877.070 1      -839.746 5 135697638.95604 105738421.96604 105738431.97401 101332651.54005        28.750           4.000          28.250           4.000          30.500
G32  24113703.539 6  24113703.186 5  24113704.915 6  24113704.649 5  24113702.963 7      2927.865 6      2281.562 6      2281.454 5      2186.349 7 126718367.47306  98741593.77506  98741599.78405  94627348.97307        39.750          35.500          38.000          35.500          42.500
R01  20270268.708 8  20270273.769 7  20270274.323 7                        83.637 8        65.066 7        65.027 7                 108356223.32108  84277089.12907  84277093.14007                        49.000          44.000          43.500
R02  21784867.132 8  21784872.229 7  21784872.614 7                      3966.602 8      3085.002 7      3085.200 7                 116248222.21008  90415293.34507  90415300.34807                        48.750          45.500          45.250
R08  22879057.380 7  22879062.195 7  22879061.667 7                     -3331.986 7     -2591.573 7     -2591.397 7                 122516338.72207  95290508.83307  95290506.83907                        42.500          42.500          42.750
R14  24371904.742 6  24371910.101 6  24371910.178 6                     -4264.787 6     -3317.064 6     -3316.869 6                 129915940.36006 101045741.99206 101045745.99706                        40.750          37.750          37.000
R15  21951059.587 8  21951064.650 7  21951064.645 7                     -2828.412 8     -2199.911 7     -2199.737 7                 117299793.89308  91233195.75607  91233190.75307                        49.000          45.500          45.250
R16  22152281.528 8  22152286.304 7  22152286.526 7  22152271.904 7       717.128 8       557.754 7       557.833 7       538.195 7 118333508.80108  92037196.12907  92037186.12307  88820065.46307        48.750          45.750          45.500          42.500
R17  19758472.495 8  19758476.945 8  19758476.971 8                      1537.840 8      1196.145 8      1196.156 8                 105731599.80108  82235714.61308  82235714.61108                        52.500          49.500          49.750
R18  23173582.169 7  23173586.848 7  23173587.565 7                      3285.694 7      2555.578 7      2555.668 7                 123702163.60707  96212812.36007  96212816.36507                        44.250          42.250          42.000
R23  24002507.971 6                                                     -3322.053 6                                                 128397253.20506                                                        38.750
R24  20270210.562 8  20270215.096 8  20270215.400 8  20270200.486 8     -1804.061 8     -1403.162 8     -1403.042 8     -1352.680 8 108393962.74108  84306462.00008  84306453.00208  81273896.85808        52.250          48.500          48.750          48.750
S23  38483892.799 7  38483864.155 6         2.035 7         1.398 6 202234232.87207 151018947.40206        42.500          36.750
S36  38222168.476 7  38222139.828 6        -2.970 7        -1.922 6 200858904.43807 149991886.22106        44.250          38.250
S44  41039202.676 5  41039186.066 5       -61.081 5       -45.329 5 215662345.44805 161046581.25905        33.000          32.250
> 2022 12 19 00 00 30.0000000  0 47
C02                  41252467.620 5                  41252467.610 5                  41252463.517 6                        -3.901 5                        -3.135 5                        -2.986 6                 214812433.37105                 174552695.76405                 166106566.26906                        32.500                          33.000                          36.750
C05                  39549236.845 6                  39549237.362 6                  39549234.598 6                         3.324 6                         2.790 6                         2.615 6                 205943331.29106                 167345845.59006                 159248443.76406                        38.500                          38.500                          41.250
C08                  41189809.359 5                  41189805.932 5                  41189804.674 6                     -1110.241 5                      -902.224 5                      -858.518 6                 214486142.18105                 174287544.54105                 165854272.59006                        32.250                          33.250                          36.000
C11                  21731117.345 8                  21731117.179 8                  21731116.600 8                       301.773 8                       245.224 8                       233.340 8                 113159657.23508                  91951493.00308                  87502232.05908                        48.250                          52.250                          52.750
C12                  23367817.165 7                  23367816.724 8                  23367816.270 8                     -2177.037 7                     -1768.934 8                     -1683.349 8                 121682364.99207                  98876894.89608                  94092529.73708                        45.500                          48.500                          49.250
C13                  40106093.977 6                  40106095.664 6                  40106096.683 6                      -987.673 6                      -802.653 6                      -763.665 6                 208842952.55306                 169702028.21306                 161490640.68906                        39.250                          38.000                          40.000
C23  25691531.660 6  25691529.394 7  25691527.763 7  25691525.666 7  25691526.042 7                     -2031.273 6     -2012.864 7     -1516.951 7     -1635.547 7     -1556.479 7                 135009908.41406 133782541.15707 100819071.17407 108709253.97507 103449129.44407                        40.750          43.000          43.750          45.000          44.000
C25  26836505.236 5  26836502.502 6  26836505.380 6  26836505.712 6  26836504.143 6                     -2983.317 5     -2956.395 6     -2227.830 6     -2402.279 6     -2285.970 6                 141026763.21205 139744691.13106 105312180.69006 113554007.08106 108059450.30306                        34.000          36.750          38.500          38.750          38.250
C34  21804431.826 8  21804429.673 8  21804432.651 8  21804432.871 8  21804431.142 8                      -913.869 8      -905.570 8      -682.439 8      -735.825 8      -700.253 8                 114583059.14608 113541383.53408  85565272.46908  92261687.75208  87797404.65208                        49.250          51.250          52.000          52.500          52.000
C37  26186744.807 6  26186741.982 6  26186748.120 7  26186748.789 7  26186746.773 7                       207.681 6       205.814 6       155.106 7       167.222 7       159.069 7                 137612268.69106 136361237.64806 102762425.12907 110804703.15007 105443178.56707                        39.250          41.250          42.750          43.250          42.250
C42  24167527.657 7  24167524.213 7  24167538.253 7  24167536.099 7  24167536.610 7                      3061.190 7      3033.484 7      2285.995 7      2464.893 7      2345.669 7                 127001199.05107 125846646.17407  94838609.98007 102260756.74607  97312656.22207                        44.750          46.250          47.750          47.500          46.500
C44  25381116.794 6  25381114.879 6  25381118.775 6  25381118.056 7  25381118.051 7                     -2836.481 6     -2810.737 6     -2118.082 6     -2283.899 7     -2173.356 7                 133378653.04106 132166110.27706  99600946.31606 107395798.03007 102199224.85907                        39.500          41.000          40.000          42.000          42.250
C60                  41039539.911 6                  41039527.827 6  41039528.068 6                                       -60.198 6                       -49.018 6       -46.388 6                                 213703702.78106                 173651745.50206 165249298.17706                                        36.250                          38.500          37.250
E01  27474660.654 6  27474662.072 6  27474661.960 7  27474660.033 7  27474661.053 7     -3207.160 6     -2394.981 6     -2603.198 7     -2457.353 7     -2426.169 7 144380359.87506 107816523.71306 117191863.85707 110629120.66607 109222830.26107        39.500          41.250          42.000          42.000          44.750
E07  25987908.349 7  25987911.323 7  25987907.576 7  25987908.503 7  25987909.342 8       918.653 7       686.068 7       745.663 7       703.891 7       694.978 8 136567395.44307 101982161.14207 110850150.63907 104642554.13807 103312361.71208        44.000          47.000          44.000          46.500          49.750
E08  27822675.722 5  27822674.735 6  27822674.440 6  27822672.779 6  27822673.711 7     -1558.828 5     -1164.083 6     -1265.206 6     -1194.266 6     -1179.146 7 146209173.45505 109182187.96606 118676286.65706 112030412.27306 110606299.69307        35.750          40.250          40.250          40.750          43.500
E12  26542815.575 6  26542815.378 7  26542814.215 6  26542813.332 7  26542814.404 7      2225.295 6      1661.791 7      1806.401 6      1705.246 7      1683.530 7 139483436.83606 104159713.17807 113217074.29506 106876919.22707 105518318.77407        36.750          42.000          41.500          42.000          45.000
E14  18430365.509 8  18430365.842 8  18430365.390 8  18430363.822 8  18430364.848 9     -4227.845 8     -3157.124 8     -3431.693 8     -3239.502 8     -3198.313 9  96852245.29808  72324742.87008  78613844.12108  74211464.81308  73268104.41509        49.250          52.500          52.250          53.000          55.750
E24  26394747.910 7  26394747.162 7  26394747.736 7  26394745.543 7  26394746.292 8      1043.354 7       779.140 7       846.862 7       799.472 7       789.308 8 138705334.82407 103578659.39907 112585499.22707 106280706.61807 104929686.08308        43.500          45.000          45.000          46.500          48.750
E26  25232820.541 7  25232820.159 8  25232821.070 8  25232818.231 8  25232819.081 8     -1688.538 7     -1260.914 8     -1370.555 8     -1293.780 8     -1277.347 8 132599453.19607  99019119.78208 107629461.09408 101602210.54508 100310664.73608        46.250          49.500          49.750          50.250          52.750
E31  25166088.745 7  25166090.662 8  25166087.700 8  25166088.909 8  25166089.728 8     -1562.175 7     -1166.476 8     -1267.938 8     -1196.956 8     -1181.721 8 132248684.10307  98757136.40608 107344705.24208 101333406.03408 100045278.79208        45.750          48.500          48.750          49.500          52.000
E33  23567508.579 8  23567508.188 8  23567508.863 8  23567506.440 8  23567507.249 9       427.835 8       319.472 8       347.264 8       327.840 8       323.661 9 123848159.89608  92484033.96708 100526112.96408  94896652.39608  93690344.25409        48.000          52.500          52.750          53.500          56.000
G01  24267012.300 6  24267012.126 3  24267014.906 6  24267014.429 3  24267012.240 7      3378.331 6      2632.391 6      2632.472 3      2522.740 7 127524002.91506  99369367.96706  99369362.94603  95228968.73507        37.250          20.000          36.250          20.000          42.500
G08  20598842.211 8  20598841.532 9  20598843.556 8  20598842.691 9  20598840.804 9      1070.085 8       833.801 8       833.830 9       799.094 9 108247663.43808  84348835.57508  84348835.57209  80834297.10809        50.250          55.000          48.250          55.000          54.000
G10  20914050.278 8  20914049.670 9  20914050.519 8  20914050.209 9  20914047.741 8      -769.886 8      -599.900 8      -599.908 9      -574.912 8 109904095.80308  85639561.59108  85639570.58309  82071248.90408        51.750          56.000          48.250          56.000          53.500
G14  25815859.472 5                  25815857.739 5                  25815861.017 5      3212.639 5      2503.320 5                      2399.444 5                 105711618.48905                 101306984.75505        33.250                          30.000                          35.500
G16  23700456.653 7  23700455.723 4                  23700454.827 4                     -3650.160 7                     -2844.277 4                 124546759.71907                  97049425.59104                        42.000          27.000                          27.000
G18  25269359.087 5  25269358.998 2  25269359.493 5  25269358.915 2  25269362.168 6     -3234.011 5     -2520.301 5     -2520.004 2     -2414.895 6 132791440.14505 103473879.90505 103473884.89102  99162491.76706        34.500          15.500          34.750          15.500          39.750
G21  22189445.208 7  22189443.948 5                  22189442.538 5                      2020.370 7                      1574.316 5                 116606336.26207                  90862064.47705                        46.250          35.500                          35.500
G22  25440019.549 6  25440019.844 1                  25440017.640 1                      3090.638 6                      2408.298 1                 133688207.89706                 104172623.41501                        36.000           6.000                           6.000
G23  22537262.242 7  22537261.903 5  22537261.254 7  22537261.182 5  22537263.077 8     -2755.742 7     -2147.324 7     -2147.329 5     -2057.825 8 118434137.99207  92286375.30007  92286355.29805  88441125.94508        46.000          35.250          44.500          35.250          48.000
G27  20389778.326 8  20389777.629 9  20389778.976 8  20389778.480 9  20389777.644 9     -1338.007 8     -1042.593 8     -1042.604 9      -999.146 9 107149033.39408  83492764.91708  83492766.91709  80013899.61009        50.500          55.750          48.500          55.750          54.500
G30  25828860.799 5                  25828862.086 4                  25828859.115 4     -1139.340 5      -888.468 4                      -850.431 4 135731593.51905 105764880.20204                 101358007.28904        30.000                          26.000                          28.250
G32  24097003.118 6  24097002.756 5  24097004.560 6  24097004.217 5  24097002.720 7      2922.045 6      2277.024 6      2276.916 5      2181.939 7 126630606.99006  98673208.99606  98673214.98805  94561813.54807        40.500          35.500          38.250          35.500          42.250
